City_ID,City,Lat,Lng,Max Temp,Humidity,Cloudiness,Wind Speed,Country,Date
0,mikhaylovskoye,51.8239,79.7172,-13.65,73,100,7.11,RU,1707717853
1,grytviken,-54.2811,-36.5092,5.46,78,3,3.81,GS,1707717854
2,darazo,10.9938,10.4118,19.11,15,1,2.5,NG,1707717854
3,adamstown,-25.066,-130.1015,24.9,90,45,8.35,PN,1707717854
4,ust-nera,64.5667,143.2,-35.4,99,84,1.05,RU,1707717854
5,puerto natales,-51.7236,-72.4875,6.03,81,95,4.83,CL,1707717854
6,blackmans bay,-43.0167,147.3167,21.07,66,67,0.89,AU,1707717854
7,magaria,12.9983,8.9099,19.57,12,28,3.28,NE,1707717855
8,waitangi,-43.9535,-176.5597,13.23,83,97,0.45,NZ,1707717855
9,yellowknife,62.456,-114.3525,-15.71,96,20,0.0,CA,1707717721
10,leava,-14.3,-178.1667,28.5,84,100,9.53,WF,1707717855
11,nova sintra,14.8667,-24.7167,19.86,79,2,7.01,CV,1707717855
12,new norfolk,-42.7826,147.0587,21.72,29,80,1.36,AU,1707717855
13,nar'yan-mar,67.6713,53.087,-33.27,100,29,1.79,RU,1707717855
14,new romney,50.986,0.9412,4.99,94,99,2.57,GB,1707717856
15,college,64.8569,-147.8028,-10.82,88,75,2.06,US,1707717856
16,weno,7.4515,151.8468,29.97,70,40,5.66,FM,1707717856
17,laguna,38.421,-121.4238,8.99,83,0,1.54,US,1707717856
18,faranah,10.0404,-10.7434,21.85,35,3,1.45,GN,1707717856
19,punta arenas,-53.15,-70.9167,7.06,65,0,5.14,CL,1707717856
20,albany,42.6001,-73.9662,1.68,77,95,0.45,US,1707717589
21,al burayqah,30.4062,19.5739,17.55,67,100,6.84,LY,1707717856
22,kodiak,57.79,-152.4072,-0.27,80,0,2.06,US,1707717857
23,tomatlan,19.9333,-105.25,17.41,82,99,0.89,MX,1707717857
24,vorgashor,67.5833,63.95,-33.3,100,100,1.22,RU,1707717857
25,bethel,41.3712,-73.414,2.74,79,0,0.89,US,1707717558
26,tympaki,35.0729,24.7685,17.84,77,100,2.68,GR,1707717857
27,hawaiian paradise park,19.5933,-154.9731,22.24,91,75,3.6,US,1707717857
28,thompson,55.7435,-97.8558,-13.91,85,20,1.54,CA,1707717628
29,margaret river,-33.95,115.0667,23.87,52,2,11.17,AU,1707717858
30,port-aux-francais,-49.35,70.2167,5.81,79,8,10.77,TF,1707717858
31,kununurra,-15.7667,128.7333,31.99,62,89,2.06,AU,1707717858
32,jamestown,42.097,-79.2353,-0.55,90,100,2.06,US,1707717858
33,st. john's,47.5649,-52.7093,0.66,93,75,3.6,CA,1707717783
34,tidjikja,18.5564,-11.4271,20.62,38,0,4.92,MR,1707717858
35,bilibino,68.0546,166.4372,-33.44,95,76,0.42,RU,1707717858
36,fale old settlement,-9.3852,-171.2468,27.84,87,100,9.39,TK,1707717859
37,saint-francois,46.4154,3.9054,4.25,88,0,1.54,FR,1707717859
38,port mathurin,-19.6833,63.4167,27.51,86,77,8.73,MU,1707717859
39,qarauyl,48.9451,79.255,-10.96,73,2,4.41,KZ,1707717859
40,jamaame,0.0697,42.745,30.47,57,98,3.9,SO,1707717859
41,antsiranana,-12.2787,49.2917,26.42,83,40,3.09,MG,1707717859
42,hithadhoo,-0.6,73.0833,27.53,76,85,4.49,MV,1707717859
43,wailua homesteads,22.0669,-159.378,23.24,78,0,1.54,US,1707717860
44,korinthos,37.9407,22.9573,11.61,70,14,2.72,GR,1707717860
45,puerto ayora,-0.7393,-90.3518,25.86,97,15,3.13,EC,1707717860
46,edinburgh of the seven seas,-37.0676,-12.3116,16.82,72,18,9.56,SH,1707717860
47,talnakh,69.4865,88.3972,-31.95,89,17,1.99,RU,1707717860
48,suva,-18.1416,178.4415,30.71,70,75,3.6,FJ,1707717860
49,hermanus,-34.4187,19.2345,22.67,59,0,3.19,ZA,1707717860
50,codrington,-38.2667,141.9667,21.63,63,0,5.03,AU,1707717861
51,oasis,33.4659,-116.0989,12.29,65,0,0.0,US,1707717861
52,rzhanitsa,53.4284,33.923,0.57,99,100,3.02,RU,1707717861
53,januaria,-15.4833,-44.3667,19.76,90,43,0.55,BR,1707717861
54,atafu village,-8.5421,-172.5159,27.74,85,100,9.44,TK,1707717861
55,tofol,5.3248,163.0078,28.88,74,100,5.14,FM,1707717861
56,iqaluit,63.7506,-68.5145,-27.95,68,20,6.71,CA,1707717861
57,ma'an,26.9775,110.7211,18.28,50,81,1.08,CN,1707717862
58,qamdo,31.1667,97.2333,-2.05,24,6,1.34,CN,1707717862
59,ciudad guayana,8.3533,-62.6528,25.29,82,48,4.17,VE,1707717862
60,isafjordur,66.0755,-23.124,0.19,91,100,14.67,IS,1707717862
61,bredasdorp,-34.5322,20.0403,20.94,75,2,2.18,ZA,1707717862
62,freetown,8.484,-13.2299,26.84,83,15,3.09,SL,1707717862
63,laojunmiao,39.8333,97.7333,5.01,13,10,2.1,CN,1707717862
64,newman,37.3138,-121.0208,9.05,88,14,1.34,US,1707717758
65,ribeira grande,38.5167,-28.7,17.1,88,11,10.28,PT,1707717863
66,portage la prairie,49.9728,-98.2926,-4.94,65,50,3.72,CA,1707717863
67,stanley,54.868,-1.6985,3.49,87,20,2.57,GB,1707717859
68,opuwo,-18.0607,13.84,21.96,78,100,2.83,NA,1707717863
69,papatowai,-46.5619,169.4708,16.62,61,86,3.65,NZ,1707717863
70,okha,53.5739,142.9478,-12.87,93,100,3.44,RU,1707717863
71,olonkinbyen,70.9221,-8.7187,-2.0,67,100,6.49,SJ,1707717863
72,vilyuchinsk,52.9306,158.4028,-7.85,76,6,2.66,RU,1707717863
73,bay roberts,47.5999,-53.2648,0.86,95,98,0.45,CA,1707717864
74,aguazul,5.1728,-72.5471,27.11,74,91,1.16,CO,1707717864
75,whangarei,-35.7317,174.3239,20.92,59,44,1.85,NZ,1707717589
76,port elizabeth,-33.918,25.5701,21.29,82,0,3.6,ZA,1707717691
77,la paz,-16.5,-68.15,9.99,88,75,3.6,BO,1707717864
78,anadyr,64.75,177.4833,-25.56,75,0,6.0,RU,1707717798
79,altay,47.8667,88.1167,-9.48,80,100,1.01,CN,1707717864
80,enewetak,11.3474,162.3373,26.5,79,100,9.83,MH,1707717865
81,viamao,-30.0811,-51.0233,28.55,74,0,1.03,BR,1707717697
82,georgetown,5.4112,100.3354,34.97,41,20,6.69,MY,1707717865
83,tiksi,71.6872,128.8694,-34.3,100,100,0.88,RU,1707717865
84,broken hill,-31.95,141.4333,36.47,18,11,3.79,AU,1707717865
85,longyearbyen,78.2186,15.6401,-11.09,73,40,5.14,SJ,1707717865
86,luderitz,-26.6481,15.1594,18.76,87,5,3.41,NA,1707717865
87,tindouf,27.6711,-8.1474,12.25,58,0,2.57,DZ,1707717865
88,prado,-17.3411,-39.2208,24.44,90,20,1.61,BR,1707717866
89,es castell,39.8795,4.2854,12.38,71,0,4.12,ES,1707717866
90,crane,31.3974,-102.3501,3.89,61,92,7.24,US,1707717866
91,homosassa springs,28.8036,-82.5759,20.01,88,100,0.0,US,1707717866
92,portland,45.5234,-122.6762,10.15,90,100,5.36,US,1707717606
93,ushuaia,-54.8,-68.3,6.81,76,40,10.29,AR,1707717720
94,konstantinovsk,47.5828,41.0922,5.19,92,100,2.33,RU,1707717866
95,petropavlovsk-kamchatsky,53.0452,158.6483,-8.67,72,0,4.92,RU,1707717867
96,kapuskasing,49.4169,-82.4331,-8.95,92,100,0.51,CA,1707717867
97,asekeyevo,53.5742,52.7972,-19.93,96,82,1.68,RU,1707717867
98,andorra,42.5,1.5,2.65,74,79,2.13,AD,1707717867
99,dudinka,69.4058,86.1778,-37.4,99,28,1.79,RU,1707717867
100,taoudenni,22.6783,-3.9836,21.61,32,0,3.72,ML,1707717867
101,kamaishi,39.2667,141.8833,5.64,46,71,3.76,JP,1707717867
102,corinto,37.9407,22.9573,11.61,72,36,2.77,GR,1707717867
103,saint-joseph,-21.3667,55.6167,28.21,80,21,4.98,RE,1707717868
104,acapulco de juarez,16.8634,-99.8901,24.62,81,38,1.78,MX,1707717777
105,saipan,15.1355,145.701,29.39,61,20,6.69,MP,1707717868
106,villa canas,-34.0057,-61.6076,23.86,93,11,2.86,AR,1707717868
107,magadan,59.5667,150.8,-19.15,95,100,1.59,RU,1707717868
108,avarua,-21.2078,-159.775,26.03,73,20,3.6,CK,1707717868
109,tralee,52.2704,-9.7026,7.82,69,30,9.52,IE,1707717868
110,remire-montjoly,4.9167,-52.2667,26.02,89,75,3.09,GF,1707717869
111,dongcun,36.7767,121.1597,8.22,64,0,5.57,CN,1707717869
112,hamilton,39.1834,-84.5333,3.3,80,0,2.57,US,1707717577
113,geraldton,-28.7667,114.6,27.23,65,0,8.23,AU,1707717869
114,west island,-12.1568,96.8225,30.99,70,40,4.12,CC,1707717869
115,nova xavantina,-14.6667,-52.35,21.22,99,100,2.65,BR,1707717668
116,vadso,70.0744,29.7487,-4.91,93,75,1.54,NO,1707717869
117,haiku-pauwela,20.9219,-156.3051,22.25,84,40,3.09,US,1707717869
118,glenfield park,-35.1372,147.334,36.31,36,1,1.79,AU,1707717870
119,utrik,11.2278,169.8474,26.26,80,93,9.61,MH,1707717870
120,san ignacio,17.1561,-89.0714,23.08,94,0,0.0,BZ,1707717870
121,wanning,18.8003,110.3967,22.85,68,99,4.08,CN,1707717870
122,zaozersk,69.4005,32.4476,-22.3,98,56,1.88,RU,1707717870
123,mitsamiouli,-11.3847,43.2844,27.72,76,98,6.58,KM,1707717870
124,mejit,10.2753,170.8646,26.51,77,85,9.34,MH,1707717870
125,iwon-up,40.3231,128.6553,4.34,47,0,5.1,KP,1707717594
126,kolyshley,52.7005,44.5367,-8.28,95,100,5.76,RU,1707717871
127,howard springs,-12.497,131.047,26.95,95,100,3.67,AU,1707717871
128,port alfred,-33.5906,26.891,23.43,76,67,2.24,ZA,1707717871
129,invercargill,-46.4,168.35,16.68,69,70,3.13,NZ,1707717871
130,lisakovsk,52.5369,62.4936,-16.97,95,78,2.84,KZ,1707717871
131,hell-ville,-13.4,48.2667,25.33,90,100,4.9,MG,1707717871
132,warrensburg,38.7628,-93.7361,2.04,80,0,2.57,US,1707717871
133,arraial do cabo,-22.9661,-42.0278,25.07,88,23,10.06,BR,1707717871
134,kitimat,54.0524,-128.6534,-0.18,69,10,0.67,CA,1707717843
135,wau,7.7029,27.9953,27.94,16,27,2.72,SS,1707717872
136,prince rupert,54.3161,-130.3201,5.83,100,0,4.12,CA,1707717872
137,fort bragg,35.139,-79.006,15.11,94,100,0.45,US,1707717736
138,nemuro,43.3236,145.575,-2.37,65,45,3.63,JP,1707717666
139,ghat,24.9647,10.1728,15.9,33,0,2.79,LY,1707717872
140,san juan,-31.5375,-68.5364,29.67,52,20,2.13,AR,1707717837
141,guiratinga,-16.3494,-53.7583,21.7,90,100,2.79,BR,1707717872
142,klaksvik,62.2266,-6.589,5.51,91,100,9.11,FO,1707717873
143,santa ana de yacuma,-13.75,-65.4333,24.86,91,100,1.68,BO,1707717873
144,zhigalovo,54.8097,105.1578,-11.8,80,100,4.16,RU,1707717873
145,margate,51.3813,1.3862,4.27,94,96,0.45,GB,1707717873
146,buala,-8.145,159.5921,28.66,76,84,3.66,SB,1707717873
147,kisangani,0.5167,25.2,26.02,72,74,1.74,CD,1707717873
148,novyy urengoy,66.0833,76.6333,-29.47,97,88,2.96,RU,1707717873
149,nagqu,31.5,92.0,-4.77,23,36,3.04,CN,1707717873
150,gros islet,14.0667,-60.95,26.9,77,2,8.03,LC,1707717874
151,constantia,44.1833,28.65,12.61,86,100,10.58,RO,1707717874
152,severo-yeniseyskiy,60.3725,93.0408,-18.01,95,100,4.47,RU,1707717874
153,imbituba,-28.24,-48.6703,23.35,92,21,4.04,BR,1707717874
154,launceston,-41.45,147.1667,27.8,32,30,10.8,AU,1707717874
155,touros,-5.1989,-35.4608,26.36,82,65,5.17,BR,1707717874
156,vilyuysk,63.7553,121.6247,-27.22,96,100,4.92,RU,1707717875
157,klyuchi,52.2667,79.1667,-13.92,72,100,7.26,RU,1707717875
158,badger,64.8,-147.5333,-10.86,78,75,0.0,US,1707717583
159,kavaratti,10.5669,72.642,28.04,71,58,4.75,IN,1707717875
160,owando,-0.4819,15.8999,25.33,72,59,1.04,CG,1707717875
161,vorkuta,67.5,64.0,-32.73,100,100,1.63,RU,1707717875
162,okondja,-0.6549,13.6753,24.2,89,93,0.75,GA,1707717875
163,usinsk,65.9939,57.5281,-34.4,100,88,2.24,RU,1707717876
164,watsa,3.0372,29.5355,24.4,58,83,0.6,CD,1707717876
165,puerto baquerizo moreno,-0.9,-89.6,26.07,87,46,3.21,EC,1707717876
166,harnai,30.1005,67.9374,15.79,33,100,1.68,PK,1707717876
167,ciudad lazaro cardenas,17.9583,-102.2,20.76,89,12,2.45,MX,1707717876
168,taksimo,56.3444,114.8794,-8.67,55,83,5.15,RU,1707717876
169,francistown,-21.17,27.5079,20.12,69,4,7.29,BW,1707717876
170,as sulayyil,20.4607,45.5779,18.14,36,75,4.95,SA,1707717876
171,midvagur,62.0511,-7.1939,5.46,93,100,5.14,FO,1707717877
172,lata,40.1629,-8.3327,14.4,98,99,1.47,PT,1707717877
173,queenstown,-31.8976,26.8753,21.88,43,27,1.77,ZA,1707717877
174,suntar,62.1444,117.6319,-24.23,87,100,3.05,RU,1707717877
175,salinopolis,-0.6136,-47.3561,27.65,81,100,6.61,BR,1707717877
176,shiyan,32.6475,110.7781,17.18,36,41,1.74,CN,1707717877
177,saudarkrokur,65.7461,-19.6394,0.62,79,100,8.24,IS,1707717877
178,kingston,17.997,-76.7936,25.53,81,20,6.17,JM,1707717877
179,ilulissat,69.2167,-51.1,-19.99,59,68,3.6,GL,1707717878
180,rongelap,11.1635,166.8941,26.2,82,84,9.83,MH,1707717878
181,lebu,-37.6167,-73.65,13.56,93,1,7.83,CL,1707717878
182,whitehorse,60.7161,-135.0538,-2.57,43,75,2.06,CA,1707717878
183,chonchi,-42.6128,-73.8092,9.56,90,0,1.51,CL,1707717878
184,independence,39.0911,-94.4155,1.6,78,54,2.18,US,1707717669
185,flying fish cove,-10.4217,105.6791,28.82,78,100,1.54,CX,1707717878
186,gargalianoi,37.0667,21.6333,8.34,70,5,6.32,GR,1707717879
187,redencao,-4.2258,-38.7306,23.29,98,79,0.34,BR,1707717879
188,san patricio,28.017,-97.5169,15.92,69,0,5.83,US,1707717879
189,san julian,21.0167,-102.1667,12.51,28,98,1.84,MX,1707717879
190,al kharijah,25.4514,30.5464,16.65,21,60,1.01,EG,1707717879
191,kudahuvadhoo,2.6708,72.8944,25.03,89,100,3.49,MV,1707717879
192,karratha,-20.7377,116.8463,33.81,51,1,9.45,AU,1707717879
193,carnarvon,-24.8667,113.6333,25.28,78,0,9.66,AU,1707717880
194,maragogi,-9.0122,-35.2225,26.24,82,97,3.76,BR,1707717880
195,sisimiut,66.9395,-53.6735,-23.56,90,34,3.33,GL,1707717880
196,qaqortoq,60.7167,-46.0333,-12.06,68,97,2.54,GL,1707717880
197,awjilah,29.1081,21.2869,18.45,19,100,4.12,LY,1707717880
198,santiago de cao,-7.9589,-79.2392,24.07,83,100,2.57,PE,1707717677
199,lihue,21.9789,-159.3672,23.58,78,0,1.54,US,1707717880
200,kosh-agach,50.0,88.6667,-12.61,75,74,0.89,RU,1707717880
201,sao joao da barra,-21.6403,-41.0511,23.95,91,3,5.15,BR,1707717880
202,yeniseysk,58.4497,92.1703,-15.03,91,100,4.02,RU,1707717881
203,rio grande,-32.035,-52.0986,23.86,88,33,2.53,BR,1707717881
204,alpine,32.835,-116.7664,9.36,68,0,2.06,US,1707717881
205,sao francisco,-15.9486,-44.8644,19.35,93,29,1.15,BR,1707717837
206,happy valley-goose bay,53.3168,-60.3315,0.17,100,100,2.57,CA,1707717619
207,mozarlandia,-14.7447,-50.5706,20.87,96,100,0.73,BR,1707717881
208,nelson,-41.2833,173.2833,16.76,68,70,3.41,NZ,1707717881
209,sorong,-0.8833,131.25,29.2,72,81,7.14,ID,1707717666
210,nizhneudinsk,54.9076,99.0276,-8.67,70,91,4.55,RU,1707717881
211,tynda,55.1667,124.7167,-12.88,82,100,1.37,RU,1707717882
212,aduthurai,11.0154,79.4809,29.53,50,49,5.34,IN,1707717882
213,fisterra,42.9049,-9.2629,12.08,76,69,7.14,ES,1707717882
214,nuuk,64.1835,-51.7216,-13.66,78,75,7.2,GL,1707717882
215,tilaran,10.4703,-84.9671,22.82,94,70,2.25,CR,1707717882
216,iskateley,67.6803,53.1512,-33.32,100,27,1.79,RU,1707717882
217,murrells inlet,33.551,-79.0414,17.23,96,100,3.09,US,1707717882
218,faya-largeau,17.9257,19.1043,20.36,14,0,4.14,TD,1707717883
219,kashgar,39.4547,75.9797,10.56,20,0,4.0,CN,1707717883
220,al jawf,29.5,38.75,11.78,60,49,5.41,SA,1707717883
221,afaahiti,-17.75,-149.2833,26.93,89,93,7.03,PF,1707717883
222,kodinsk,58.6881,99.1844,-13.64,86,100,3.93,RU,1707717883
223,copiapo,-27.3667,-70.3333,15.83,68,72,0.63,CL,1707717628
224,tazovsky,67.4667,78.7,-29.19,96,100,1.48,RU,1707717883
225,funafuti,-8.5243,179.1942,28.0,83,75,5.14,TV,1707717884
226,vidyayevo,69.3191,32.8049,-21.96,98,81,2.39,RU,1707717884
227,colonia,50.9333,6.95,8.23,84,75,5.14,DE,1707717628
228,dzerzhinskoye,56.8344,95.2283,-11.94,74,100,5.48,RU,1707717884
229,vila franca do campo,37.7167,-25.4333,18.27,99,86,8.65,PT,1707717884
230,lompoc,34.6391,-120.4579,8.66,93,0,2.57,US,1707717611
231,nasir,15.5894,32.5634,22.24,25,27,4.88,SD,1707717884
232,cacak,43.8914,20.3497,4.78,88,100,1.68,RS,1707717884
233,owen sound,44.5672,-80.9435,-0.02,86,91,1.79,CA,1707717884
234,barra do garcas,-15.89,-52.2567,21.29,97,100,2.73,BR,1707717885
235,aoulef,26.9667,1.0833,18.2,34,0,4.8,DZ,1707717885
236,vanino,49.0869,140.2543,-3.37,75,99,2.54,RU,1707717882
237,shalkar,47.8288,59.6258,-11.4,80,19,3.67,KZ,1707717885
238,netrakona,24.8833,90.7167,27.36,33,3,0.67,BD,1707717885
239,manicore,-5.8092,-61.3003,23.01,99,100,1.27,BR,1707717885
240,northam,51.0333,-4.2167,6.48,83,49,7.96,GB,1707717885
241,infantes,38.7367,-3.0122,10.01,98,100,7.22,ES,1707717885
242,arno,60.1167,18.6333,-6.79,92,100,5.87,SE,1707717885
243,sao felix do xingu,-6.6447,-51.995,22.49,99,100,1.09,BR,1707717683
244,aquidauana,-20.4711,-55.7872,26.33,76,100,1.97,BR,1707717886
245,changyon,38.2508,125.0961,6.33,59,0,6.62,KP,1707717886
246,carbonear,47.7332,-53.2148,1.18,95,95,4.13,CA,1707717886
247,ola,59.5833,151.2833,-18.81,83,100,1.65,RU,1707717886
248,palikir - national government center,6.9248,158.1611,28.41,70,40,4.63,FM,1707717886
249,inarajan village,13.2736,144.7484,29.66,78,66,7.79,GU,1707717886
250,tabou,4.423,-7.3528,25.26,94,65,1.34,CI,1707717886
251,camden,39.7835,-74.9663,6.94,84,70,1.34,US,1707717717
252,fortaleza,-3.7227,-38.5247,27.07,89,40,2.57,BR,1707717601
253,energodar,47.4987,34.6574,9.77,60,100,7.39,UA,1707717887
254,korla,41.7597,86.1469,2.65,52,19,2.39,CN,1707717784
255,nekrasovskoye,57.6766,40.3657,-7.06,79,100,2.0,RU,1707717887
256,umba,66.6871,34.3429,-26.19,99,95,2.32,RU,1707717887
257,kone,-21.0595,164.8658,28.16,78,77,2.12,NC,1707717887
258,novomichurinsk,54.0384,39.7479,-4.34,96,100,4.42,RU,1707717887
259,udachny,66.4167,112.4,-29.89,94,100,2.64,RU,1707717888
260,fuerte olimpo,-21.0415,-57.8738,23.8,93,98,1.85,PY,1707717888
261,kolonia,50.9333,6.95,8.13,84,100,4.12,DE,1707717878
262,natal,-5.795,-35.2094,24.36,94,75,4.12,BR,1707717888
263,mount gambier,-37.8333,140.7667,28.75,28,1,3.13,AU,1707717888
264,fort irwin,35.2627,-116.6848,2.9,75,0,2.57,US,1707717888
265,mar del plata,-38.0023,-57.5575,24.41,84,0,5.81,AR,1707717606
266,nouadhibou,20.931,-17.0347,18.99,77,0,6.69,MR,1707717888
267,puerto maldonado,-12.6,-69.1833,23.72,98,100,0.88,PE,1707717889
268,biharamulo,-2.6319,31.3089,19.07,86,81,1.21,TZ,1707717889
269,pacific grove,36.6177,-121.9166,9.25,91,0,1.54,US,1707717889
270,port macquarie,-31.4333,152.9167,27.16,64,29,5.49,AU,1707717823
271,broome,42.2506,-75.833,0.43,90,40,0.0,US,1707717889
272,sitka,57.0531,-135.33,2.94,87,100,5.14,US,1707717889
273,irymple,-34.25,142.1667,40.61,21,0,0.45,AU,1707717889
274,serafimovich,49.5786,42.736,-0.77,100,100,3.76,RU,1707717889
275,murraysville,34.2957,-77.8475,16.7,94,100,1.54,US,1707717890
276,burley,42.5357,-113.7928,-2.02,76,40,0.0,US,1707717890
277,sanchursk,56.9413,47.2499,-17.68,91,81,4.14,RU,1707717890
278,urumqi,43.801,87.6005,-0.47,60,0,3.0,CN,1707717890
279,bukuru,9.8,8.8667,18.69,22,2,1.94,NG,1707717890
280,christchurch,-43.5333,172.6333,18.08,59,40,6.17,NZ,1707717786
281,thunder bay,48.4001,-89.3168,-7.01,79,100,1.03,CA,1707717876
282,puerto deseado,-47.7503,-65.8938,10.4,52,42,14.77,AR,1707717890
283,mogadishu,2.0371,45.3438,27.82,74,84,7.12,SO,1707717605
284,mahibadhoo,3.7833,72.9667,27.91,81,100,8.14,MV,1707717891
285,minas de marcona,-15.2119,-75.1103,21.24,75,100,1.34,PE,1707717891
286,gadzhiyevo,69.2551,33.3362,-23.06,100,92,2.93,RU,1707717891
287,bereeda,11.8704,51.0579,27.24,64,37,4.74,SO,1707717891
288,fort st. john,56.2499,-120.8529,-0.06,59,100,5.66,CA,1707717891
289,egersund,58.4513,5.9997,0.6,89,100,12.45,NO,1707717763
290,brak,27.5496,14.2714,13.87,39,15,3.47,LY,1707717891
291,beloyarskiy,63.7119,66.6722,-28.33,97,21,1.34,RU,1707717891
292,kidal,18.4411,1.4078,20.72,10,0,3.12,ML,1707717892
293,timmins,48.4669,-81.3331,-9.1,86,100,1.03,CA,1707717892
294,hasaki,35.7333,140.8333,10.22,39,67,5.51,JP,1707717892
295,mangrol,21.1167,70.1167,25.35,26,96,3.2,IN,1707717892
296,kerikeri,-35.2268,173.9474,22.73,69,17,2.13,NZ,1707717892
297,saint-philippe,-21.3585,55.7679,28.77,84,66,2.68,RE,1707717892
298,praia da vitoria,38.7333,-27.0667,17.14,77,40,12.73,PT,1707717892
299,simav,39.0882,28.9777,8.17,71,99,4.95,TR,1707717892
300,mokrous,51.2333,47.5167,-8.06,93,100,5.49,RU,1707717893
301,ishigaki,24.3448,124.1572,21.07,43,20,5.14,JP,1707717893
302,uturoa,-16.7333,-151.4333,27.29,88,100,9.67,PF,1707717893
303,berezovyy,51.6667,135.7,-8.69,84,100,1.06,RU,1707717893
304,kedainiai,55.2883,23.9747,2.26,96,100,4.76,LT,1707717893
305,nogliki,51.8333,143.1667,-9.81,86,100,4.02,RU,1707717893
306,piti village,13.4626,144.6933,29.61,67,75,7.72,GU,1707717893
307,sake,-1.5736,29.045,20.39,88,42,0.89,CD,1707717893
308,arvayheer,46.2639,102.775,1.97,43,79,11.99,MN,1707717893
309,sullivan,36.5168,-82.5332,10.99,89,75,0.0,US,1707717894
310,saldanha,-33.0117,17.9442,19.03,88,0,3.48,ZA,1707717894
311,bangassou,4.7413,22.8184,24.83,45,60,0.4,CF,1707717666
312,agat village,13.3886,144.6585,29.64,68,75,7.72,GU,1707717894
313,kasongo-lunda,-6.4667,16.8167,22.38,96,95,1.32,CD,1707717894
314,sol'-iletsk,51.1631,54.9918,-17.66,87,26,2.5,RU,1707717894
315,oum hadjer,13.2954,19.6966,22.99,14,0,3.11,TD,1707717894
316,al muwayh,22.4333,41.7583,14.01,35,71,5.61,SA,1707717894
317,puerto lempira,15.2667,-83.7667,22.81,95,4,3.86,HN,1707717707
318,dalbandin,28.8947,64.4101,18.66,29,100,1.01,PK,1707717895
319,la ronge,55.1001,-105.2842,-4.86,80,20,3.6,CA,1707717798
320,susuman,62.7833,148.1667,-32.79,99,57,0.45,RU,1707717895
321,naze,28.3667,129.4833,17.51,56,3,4.08,JP,1707717895
322,tyukhtet,56.5389,89.3011,-13.99,89,100,4.71,RU,1707717895
323,shannon,52.7039,-8.8642,5.0,81,40,5.14,IE,1707717895
324,mabaruma,8.2,-59.7833,21.41,97,14,0.84,GY,1707717896
325,bilicenii vechi,47.6564,28.0472,9.46,84,100,3.41,MD,1707717896
326,merizo village,13.2658,144.6691,29.43,78,56,7.45,GU,1707717896
327,katsuura,35.1333,140.3,9.47,47,34,6.9,JP,1707717896
328,keflavik,64.0049,-22.5624,0.95,100,100,6.17,IS,1707717896
329,monrovia,6.3005,-10.7969,26.88,87,52,3.12,LR,1707717613
330,okhotsk,59.3833,143.3,-23.91,94,43,1.09,RU,1707717896
331,brisas de zicatela,15.8369,-97.0419,24.69,80,10,2.37,MX,1707717896
332,lerwick,60.1545,-1.1494,5.0,95,100,9.65,GB,1707717819
333,aykhal,66.0,111.5,-30.87,98,100,3.68,RU,1707717897
334,suncho corral,-27.9336,-63.4294,30.93,51,99,5.96,AR,1707717897
335,darwin,-12.4611,130.8418,26.99,91,100,6.69,AU,1707717897
336,bengkulu,-3.8004,102.2655,29.74,68,23,4.11,ID,1707717644
337,minas novas,-17.2186,-42.5903,18.58,98,11,1.17,BR,1707717624
338,nabire,-3.3667,135.4833,28.44,73,70,3.47,ID,1707717897
339,balkashino,52.5167,68.7667,-17.44,94,96,2.82,KZ,1707717897
340,likasi,-10.9814,26.7333,19.03,93,68,1.03,CD,1707717897
341,la sarre,48.8002,-79.1996,-10.25,98,98,0.36,CA,1707717897
342,mjolby,58.326,15.1237,-3.4,93,100,5.94,SE,1707717897
343,linxia chengguanzhen,35.6003,103.2064,9.18,18,0,2.31,CN,1707717898
344,tshabong,-26.05,22.45,25.73,48,0,8.38,BW,1707717898
345,kingscliff,-28.2667,153.5667,27.89,61,75,6.69,AU,1707717898
346,chui,-33.6971,-53.4616,23.56,92,0,2.53,UY,1707717898
347,aasiaat,68.7098,-52.8699,-28.88,100,98,2.31,GL,1707717898
348,san marcos,33.1434,-117.1661,11.29,75,3,1.2,US,1707717739
349,mariinsk,56.2139,87.7472,-13.54,84,100,6.07,RU,1707717898
350,stornoway,58.2093,-6.3865,2.99,93,100,3.6,GB,1707717898
351,izucar de matamoros,18.6,-98.4667,19.41,34,0,0.72,MX,1707717898
352,axim,4.8699,-2.2405,27.21,84,53,1.74,GH,1707717899
353,pangody,65.85,74.4859,-29.2,100,100,3.43,RU,1707717854
354,callao,-12.0667,-77.15,26.16,69,75,7.2,PE,1707717899
355,smithers,54.7804,-127.1743,-4.82,100,100,0.0,CA,1707717899
356,mandalgovi,45.7625,106.2708,-2.16,68,0,7.73,MN,1707717899
357,miracema do tocantins,-9.5618,-48.3967,21.99,90,100,1.69,BR,1707717899
358,saint-pierre,-21.3393,55.4781,28.82,79,20,8.75,RE,1707717899
359,igarka,67.4667,86.5833,-28.08,87,18,1.63,RU,1707717899
360,bodo,67.28,14.405,-3.98,39,0,13.89,NO,1707717900
361,angaur state,6.906,134.13,27.65,82,71,9.36,PW,1707717900
362,tonghae,37.5439,129.1069,9.76,36,0,1.54,KR,1707717900
363,valvedditturai,9.8167,80.1667,26.79,71,72,6.58,LK,1707717900
364,vohenstrauss,49.6238,12.3381,5.18,94,100,4.73,DE,1707717900
365,popondetta,-8.7537,148.2534,29.39,74,97,2.21,PG,1707717900
366,yuzhno-kurilsk,44.0306,145.8556,-5.35,80,53,5.12,RU,1707717900
367,montepuez,-13.1256,38.9997,21.07,100,100,1.15,MZ,1707717900
368,nikolayevsk-on-amure,53.1406,140.73,-9.65,82,100,0.85,RU,1707717901
369,san matias,-16.3667,-58.4,23.45,96,98,2.01,BO,1707717901
370,gaozhou,21.9392,110.8461,23.95,33,1,6.47,CN,1707717901
371,manokwari,-0.8667,134.0833,28.18,74,33,2.97,ID,1707717901
372,kimbe,-5.5502,150.1429,27.93,79,99,1.83,PG,1707717901
373,fukuecho,32.6881,128.8419,12.2,54,20,3.09,JP,1707717901
374,westport,41.1415,-73.3579,4.99,65,0,2.06,US,1707717901
375,bardai,11.65,7.2333,20.44,17,51,3.71,NG,1707717902
376,xilin hot,43.9667,116.0333,-0.87,75,0,8.26,CN,1707717902
377,rubtsovsk,51.5,81.25,-12.74,90,100,6.7,RU,1707717902
378,yinchuan,38.4681,106.2731,8.93,19,0,1.14,CN,1707717612
379,marau,-28.4492,-52.2,21.06,78,75,1.66,BR,1707717902
380,lovisa,60.4566,26.2251,-10.4,87,87,4.79,FI,1707717902
381,eyl,7.9803,49.8164,28.63,56,58,5.91,SO,1707717903
382,olyokminsk,60.3736,120.4264,-21.77,86,79,3.94,RU,1707717903
383,obo,5.3998,26.4869,27.95,21,96,2.95,CF,1707717636
384,hammerfest,70.6634,23.6821,-0.75,93,75,3.09,NO,1707717903
385,coquimbo,-29.9533,-71.3436,16.85,88,0,2.06,CL,1707717903
386,kristiansund,63.1115,7.732,5.36,52,0,5.66,NO,1707717903
387,mbale,1.0821,34.175,26.04,53,46,1.2,UG,1707717904
388,neiafu,-18.65,-173.9833,29.38,84,75,3.72,TO,1707717904
389,kishtwar,33.3167,75.7667,12.84,27,69,1.0,IN,1707717904
390,orkney,-26.9802,26.6727,21.24,66,1,4.54,ZA,1707717904
391,kismayo,-0.3582,42.5454,28.66,71,98,6.82,SO,1707717905
392,harstad,68.799,16.5293,-3.25,92,53,2.33,NO,1707717905
393,porto novo,6.4965,2.6036,28.9,93,18,1.54,BJ,1707717877
394,egilsstadir,65.2653,-14.3948,1.95,80,100,10.8,IS,1707717905
395,khalkhal,37.6189,48.5258,5.55,63,5,1.83,IR,1707717905
396,nagrota,32.05,76.0833,21.1,29,72,3.34,IN,1707717906
397,kirkwall,58.9848,-2.9587,4.98,93,20,2.06,GB,1707717906
398,ancud,-41.8697,-73.8203,11.04,71,6,3.97,CL,1707717634
399,groenswaard,52.0515,4.6454,7.27,91,75,3.09,NL,1707717906
400,el porvenir,13.7617,-87.3458,22.63,71,2,1.3,HN,1707717906
401,mingshui,36.7167,117.5,14.97,43,0,6.03,CN,1707717839
402,oriximina,-1.7656,-55.8661,23.66,94,68,2.53,BR,1707717906
403,tamanrasset,22.785,5.5228,11.95,14,0,1.03,DZ,1707717907
404,qui nhon,13.7667,109.2333,25.61,65,97,6.01,VN,1707717907
405,flores da cunha,-29.0289,-51.1817,20.99,94,27,1.15,BR,1707717733
406,tailai,46.3833,123.4,7.44,31,18,9.09,CN,1707717907
407,asadabad,34.7824,48.1185,2.97,39,0,0.75,IR,1707717907
408,kolonia town,6.964,158.206,29.0,70,40,4.63,FM,1707717907
409,walvis bay,-22.9575,14.5053,16.53,94,100,0.51,NA,1707717908
410,princeville,45.7668,-61.2985,2.17,94,100,1.54,CA,1707717908
411,embalenhle,-26.5333,29.0667,17.53,93,19,0.95,ZA,1707717908
412,paracuru,-3.41,-39.0306,26.73,88,80,4.94,BR,1707717908
413,kabompo,-13.5927,24.2008,20.84,71,56,2.33,ZM,1707717908
414,aljezur,37.3191,-8.8033,17.14,93,84,6.55,PT,1707717908
415,puerto armuelles,8.2833,-82.8667,26.72,76,6,1.79,PA,1707717909
416,selfoss,63.9331,-20.9971,-1.9,88,100,5.94,IS,1707717909
417,fianarantsoa,-21.4333,47.0833,21.11,83,100,3.65,MG,1707717909
418,lorengau,-2.0226,147.2712,29.25,70,71,3.46,PG,1707717910
419,collipulli,-37.95,-72.4333,11.45,88,0,4.49,CL,1707717784
420,colon,9.3592,-79.9014,24.39,90,24,3.58,PA,1707717910
421,bandon,51.7469,-8.7425,1.77,80,2,2.39,IE,1707717910
422,ginir,7.1333,40.7,19.55,48,65,3.51,ET,1707717910
423,partenit,44.578,34.3446,13.04,50,100,2.26,UA,1707717910
424,sandnessjoen,66.0217,12.6316,-3.94,50,0,2.57,NO,1707717910
425,ta`u,-14.2336,-169.5144,27.12,88,100,9.32,AS,1707717911
426,hilo,19.7297,-155.09,22.38,94,75,3.6,US,1707717911
427,halifax,44.6453,-63.5724,3.0,91,100,3.47,CA,1707717664
428,adamovka,51.5223,59.9396,-16.13,89,23,3.13,RU,1707717911
429,genhe,50.7833,121.5167,-3.11,79,98,2.32,CN,1707717911
430,monze,-16.2833,27.4833,21.44,73,75,4.05,ZM,1707717686
431,bayanhongor,46.7167,100.1167,-5.57,72,19,3.73,MN,1707717911
432,ebon,4.582,168.6964,27.58,83,67,9.38,MH,1707717912
433,ulsteinvik,62.3432,5.8487,7.5,73,100,2.53,NO,1707717912
434,kapa'a,22.0752,-159.319,23.99,78,0,1.54,US,1707717912
435,torrijos,39.9819,-4.2835,9.48,97,99,6.92,ES,1707717912
436,ulladulla,-35.35,150.4667,26.8,62,1,6.64,AU,1707717912
437,road town,18.4167,-64.6167,25.1,71,98,7.59,VG,1707717910
438,sao francisco de assis,-29.5503,-55.1311,25.63,76,75,2.21,BR,1707717913
439,port lincoln,-34.7333,135.8667,26.32,50,2,4.16,AU,1707717913
440,hidalgo,20.5,-99.0,15.29,38,61,1.38,MX,1707717913
441,cieplice slaskie zdroj,50.8655,15.6837,6.99,99,100,3.93,PL,1707717913
442,bugiri,0.5714,33.7417,23.67,71,63,2.24,UG,1707717913
443,huanta,-12.9333,-74.25,15.5,72,97,0.85,PE,1707717913
444,iowa park,33.9515,-98.6687,1.08,95,100,6.17,US,1707717913
445,slyudyanka,51.6594,103.7061,-8.38,82,100,3.46,RU,1707717914
446,mirpur khas,25.5251,69.0159,24.18,11,81,2.94,PK,1707717914
447,isabela,6.7085,121.9711,30.03,58,30,2.78,PH,1707717914
448,kholmsk,47.0511,142.0569,-2.44,70,98,7.0,RU,1707717638
449,tolanaro,-25.0319,46.9987,29.04,79,40,6.17,MG,1707717914
450,poronaysk,49.2167,143.1167,-8.28,87,99,2.26,RU,1707717915
451,alice springs,-23.7,133.8833,28.75,70,75,3.09,AU,1707717915
452,kuvandyk,51.4781,57.3552,-15.66,92,66,0.81,RU,1707717915
453,grand-bassam,5.2118,-3.7388,28.98,83,58,1.91,CI,1707717915
454,santa cruz,-17.8,-63.1667,24.7,100,75,4.12,BO,1707717915
455,olinda,-8.0089,-34.8553,26.85,89,40,4.63,BR,1707717619
456,wuchuan,21.4571,110.7659,22.15,55,3,7.19,CN,1707717916
457,motueka,-41.1333,173.0167,18.8,63,70,2.5,NZ,1707717916
458,kourou,5.1552,-52.6478,26.03,87,72,4.62,GF,1707717916
459,rinteln,52.186,9.0792,8.27,92,75,3.09,DE,1707717916
460,la cabecera,18.8442,-99.5872,20.34,46,0,2.07,MX,1707717916
461,san antonio de pale,-1.4014,5.6325,28.28,81,74,2.91,GQ,1707717916
462,termas de rio hondo,-27.4998,-64.8604,26.95,68,97,2.66,AR,1707717917
463,xiva,41.3783,60.3639,4.99,52,97,6.41,UZ,1707717917
464,ketchikan,55.3422,-131.6461,1.99,93,100,0.0,US,1707717917
465,shahritus,37.2637,68.1385,14.76,28,100,1.13,TJ,1707717917
466,hinton,53.4001,-117.5857,-1.08,98,100,1.26,CA,1707717917
467,yefremov,53.1481,38.0992,-2.15,97,100,4.27,RU,1707717917
468,bahia de kino,28.8333,-111.9333,12.73,61,0,6.98,MX,1707717917
469,kibungan,16.695,120.6553,21.54,58,47,1.13,PH,1707717918
470,celestun,20.8667,-90.4,24.44,76,0,4.66,MX,1707717918
471,waingapu,-9.6567,120.2641,28.27,79,63,10.44,ID,1707717918
472,hotan,37.0997,79.9269,8.39,26,85,1.77,CN,1707717918
473,bikenibeu village,1.3673,173.1241,29.98,84,75,3.09,KI,1707717918
474,grand-lahou,5.1367,-5.0242,26.68,89,70,2.61,CI,1707717918
475,farasan,16.7022,42.1183,26.18,81,8,3.2,SA,1707717919
476,tirumullaivasal,11.2333,79.8333,27.9,61,31,6.66,IN,1707717919
477,gaur,26.7667,85.2667,23.89,31,0,2.79,NP,1707717919
478,belle fourche,44.6714,-103.8522,3.94,60,100,2.0,US,1707717919
479,malango,-2.9627,119.9001,24.84,86,98,0.21,ID,1707717919
480,gizo,-8.103,156.8419,28.36,78,82,6.65,SB,1707717919
481,karaton,-6.3424,106.1045,30.2,65,32,2.37,ID,1707717920
482,grove city,39.8815,-83.093,-0.21,86,0,1.54,US,1707717903
483,palopo,-2.9996,120.1921,27.54,83,97,1.28,ID,1707717920
484,tarko-sale,64.9225,77.785,-27.32,95,98,3.81,RU,1707717920
485,ad dabbah,18.05,30.95,19.11,13,42,2.95,SD,1707717920
486,atbasar,51.8,68.3333,-16.72,94,16,2.82,KZ,1707717920
487,pisco,-13.7,-76.2167,23.03,83,0,3.09,PE,1707717920
488,mili,6.0815,171.735,27.58,78,90,10.75,MH,1707717920
489,chililabombwe,-12.3648,27.8229,19.96,83,30,2.4,ZM,1707717623
490,ataq,14.5377,46.8319,21.15,60,54,0.4,YE,1707717921
491,castanos,26.7833,-101.4167,12.73,26,2,2.83,MX,1707717921
492,cururupu,-1.8283,-44.8683,23.11,99,44,1.15,BR,1707717921
493,liberal,37.0431,-100.921,-2.42,100,0,3.6,US,1707717921
494,quellon,-43.1167,-73.6167,7.77,79,0,2.1,CL,1707717921
495,ouallam,14.3188,2.0866,21.4,10,0,4.54,NE,1707717921
496,ryotsu-minato,38.0833,138.4333,6.63,49,83,3.92,JP,1707717921
497,kikvidze,50.7416,43.0518,-1.89,96,100,5.41,RU,1707717922
498,kerema,-7.9631,145.7785,29.43,74,40,3.13,PG,1707717922
499,dunedin,-45.8742,170.5036,15.49,65,65,3.99,NZ,1707717922
500,dzhalagash,45.0833,64.6667,-2.76,41,69,5.21,KZ,1707717922
501,caluula,11.9661,50.7569,27.0,64,32,3.72,SO,1707717922
502,isola di capo rizzuto,38.96,17.0933,10.1,67,97,6.43,IT,1707717922
503,hadibu,12.65,54.0333,26.54,64,22,2.64,YE,1707717922
504,sandpoint,48.2766,-116.5533,2.05,82,100,2.06,US,1707717672
505,tadine,-21.55,167.8833,26.57,82,15,9.29,NC,1707717923
506,machico,32.7,-16.7667,20.4,80,20,0.51,PT,1707717783
507,sim,54.993,57.6982,-12.96,93,99,0.76,RU,1707717923
508,tokushima,34.0658,134.5594,10.96,37,20,8.23,JP,1707717923
509,hanceville,34.0607,-86.7675,15.3,99,100,2.11,US,1707717923
510,acarau,-2.8856,-40.12,25.95,89,41,4.85,BR,1707717923
511,adam,22.3756,57.5233,22.94,61,75,6.92,OM,1707717923
512,new richmond,45.123,-92.5366,1.45,73,75,4.63,US,1707717924
513,vila velha,-20.3297,-40.2925,23.3,96,40,0.89,BR,1707717924
514,uvalde,29.3669,-99.767,10.18,59,0,10.8,US,1707717924
515,kotel'nikovo,47.6317,43.1461,2.78,100,100,3.24,RU,1707717924
516,calca,-13.3333,-71.95,13.64,80,100,0.75,PE,1707717924
517,port saint john's,-31.6229,29.5448,23.17,71,17,5.75,ZA,1707717924
518,benguela,-12.5763,13.4055,27.56,78,97,0.31,AO,1707717633
519,puerto colombia,10.9878,-74.9547,28.05,80,7,9.28,CO,1707717924
520,kuqa,41.7278,82.9364,5.47,27,5,0.58,CN,1707717924
521,hibbing,47.4272,-92.9377,-2.36,74,100,0.0,US,1707717925
522,gobabis,-22.45,18.9667,23.85,52,74,4.16,NA,1707717925
523,masonboro,34.1793,-77.8475,16.71,95,100,1.54,US,1707717925
524,homer,59.6425,-151.5483,1.56,93,100,1.34,US,1707717925
525,necochea,-38.5473,-58.7368,20.66,92,10,3.9,AR,1707717850
526,mazatlan,23.2167,-106.4167,17.17,60,0,1.79,MX,1707717768
527,abu jibeha,11.4562,31.2285,25.08,11,25,2.91,SD,1707717925
528,brooks,50.5834,-111.8851,-5.01,91,100,2.06,CA,1707717723
529,ifakara,-8.1333,36.6833,24.34,95,100,0.4,TZ,1707717926
530,trevelin,-43.0858,-71.4639,7.71,88,1,2.47,AR,1707717926
531,balqash,46.8481,74.995,-14.67,72,0,4.0,KZ,1707717926
532,sungai penuh,-2.0833,101.3833,27.21,58,78,0.73,ID,1707717926
533,besisahar,28.2313,84.3761,22.64,17,0,3.54,NP,1707717926
534,rancho palos verdes,33.7445,-118.387,13.61,75,5,1.34,US,1707717926
535,xai-xai,-25.0519,33.6442,25.79,56,80,4.65,MZ,1707717927
536,kiama,-34.6833,150.8667,29.1,66,0,4.47,AU,1707717927
537,bubaque,11.2833,-15.8333,25.63,67,0,5.04,GW,1707717927
538,malabar,-33.9667,151.25,33.33,65,20,9.77,AU,1707717882
539,ussel,45.55,2.3167,2.16,97,100,0.78,FR,1707717927
540,tuy hoa,13.0833,109.3,23.85,75,99,6.17,VN,1707717927
541,tual,-5.6667,132.75,28.92,77,65,7.63,ID,1707717927
542,lodja,-3.4833,23.4333,24.11,76,51,1.44,CD,1707717928
543,babruysk,53.15,29.2333,1.71,99,100,3.23,BY,1707717928
544,kulhudhuffushi,6.6221,73.07,27.59,68,46,3.74,MV,1707717928
545,sainyabuli,19.25,101.75,29.89,37,10,1.25,LA,1707717928
546,chernyshevskiy,63.0128,112.4714,-26.79,91,100,2.63,RU,1707717928
547,kalix,65.853,23.1565,-28.93,99,19,1.87,SE,1707717928
548,boca chica,18.4537,-69.6111,22.06,88,20,2.06,DO,1707717928
549,mukalla,14.5425,49.1242,25.61,65,71,2.39,YE,1707717826
550,namibe,-15.1961,12.1522,24.76,83,94,4.75,AO,1707717929
551,mezhdurechenskiy,59.6,65.9333,-19.87,87,6,2.4,RU,1707717929
552,damavand,35.7178,52.065,5.24,72,1,0.14,IR,1707717929
553,jabor,5.921,169.6434,27.42,82,65,10.62,MH,1707717929
554,mossel bay,-34.1831,22.146,21.96,67,0,2.13,ZA,1707717929
555,adrar,20.5022,-10.0711,17.54,40,0,3.62,MR,1707717929
556,revda,56.801,59.9303,-15.41,93,99,4.13,RU,1707717929
557,morehead city,34.7229,-76.726,16.68,86,100,3.6,US,1707717930
558,turkmenbasy,40.0222,52.9552,12.43,54,0,3.09,TM,1707717930
559,sudislavl',57.8817,41.7083,-10.51,95,100,2.91,RU,1707717930
560,filey,54.21,-0.2892,3.92,89,15,2.24,GB,1707717930
561,val-d'or,48.1002,-77.7828,-5.95,100,100,1.54,CA,1707717887
